{
	"totalCount": 16,
	"start": 0,
	"rows": 5000,
	"facetas": [
	{
	"name": "Tipo",
	"etiqueta": "Tipo",
	"values": [
	{
	"name": "hospitales",
	"count": 16
	}
	]
	},
	{
	"name": "Distrito",
	"etiqueta": "Distrito",
	"values": [
	{
	"name": "Centro",
	"count": 1
	},
	{
	"name": "Delicias",
	"count": 1
	},
	{
	"name": "San Gregorio",
	"count": 1
	},
	{
	"name": "Universidad",
	"count": 1
	}
	]
	}
	],
	"result": [
	{
	"id": "9096",
	"title": "Grupo Hospitalario Quirón",
	"tipoEquipamiento": [
	"hospitales"
	],
	"telephone": " 976 720 000 ",
	"url": "http://www.quiron.es/",
	"titularidadPublica": false,
	"streetAddress": "P° Mariano Renovales, s/n",
	"postalCode": "50006",
	"portalId": "28422",
	"geometry": {
	"type": "Point",
	"coordinates": [
	675682.7900016418,
	4611444.029997858
	]
	},
	"latitud": 41.633527976930914,
	"longitud": -0.8920942729292143,
	"creationDate": "2012-03-19T01:00:00",
	"lastUpdated": "2021-03-23T08:36:49"
	},
	{
	"id": "9044",
	"title": "Centro de Rehabilitación Psicosocial Ntra. Sra. del Pilar",
	"tipoEquipamiento": [
	"hospitales"
	],
	"telephone": "976 331 500",
	"titularidadPublica": true,
	"streetAddress": "C/ Duquesa Villahermosa, 66",
	"postalCode": "50009",
	"portalId": "24364",
	"geometry": {
	"type": "Point",
	"coordinates": [
	674238.4900015721,
	4612832.189997956
	]
	},
	"latitud": 41.64633985756849,
	"longitud": -0.9090187756898702,
	"distritoId": "Delicias",
	"creationDate": "2012-03-16T01:00:00",
	"lastUpdated": "2021-03-23T08:36:49"
	},
	{
	"id": "9095",
	"title": "Clínica Médico Quirúrgica Montpellier",
	"tipoEquipamiento": [
	"hospitales"
	],
	"telephone": "976 765 300",
	"url": "http://www.clinicamontpellier.com",
	"titularidadPublica": false,
	"streetAddress": "Via Hispanidad, 37",
	"postalCode": "50012",
	"portalId": "27896",
	"geometry": {
	"type": "Point",
	"coordinates": [
	673867.9100015541,
	4611716.019997988
	]
	},
	"latitud": 41.636373861286664,
	"longitud": -0.9137902823215234,
	"creationDate": "2012-03-19T01:00:00",
	"lastUpdated": "2021-03-23T08:36:49"
	},
	{
	"id": "9097",
	"title": "Hospital General de la Defensa de Zaragoza",
	"tipoEquipamiento": [
	"hospitales"
	],
	"telephone": " 976 564 142 ",
	"titularidadPublica": true,
	"streetAddress": "Via Ibérica, 1",
	"postalCode": "50012",
	"portalId": "337",
	"geometry": {
	"type": "Point",
	"coordinates": [
	674555.5700015866,
	4611133.84999794
	]
	},
	"latitud": 41.630983458454885,
	"longitud": -0.9057091245118403,
	"creationDate": "2012-03-19T01:00:00",
	"lastUpdated": "2021-03-23T08:36:49"
	},
	{
	"id": "12289",
	"title": "Clínica Almozara",
	"tipoEquipamiento": [
	"hospitales"
	],
	"telephone": "976 280 568",
	"titularidadPublica": true,
	"creationDate": "2013-04-04T12:50:31",
	"lastUpdated": "2021-03-23T08:36:49"
	},
	{
	"id": "12288",
	"title": "Clínica Actur",
	"tipoEquipamiento": [
	"hospitales"
	],
	"telephone": "976 735 767",
	"titularidadPublica": true,
	"creationDate": "2013-04-04T02:00:00",
	"lastUpdated": "2021-03-23T08:36:49"
	},
	{
	"id": "9038",
	"title": "Hospital Clínico Universitario Lozano Blesa",
	"tipoEquipamiento": [
	"hospitales"
	],
	"email": "comunicacion3@salud.aragon.es",
	"telephone": "976 76 57 00",
	"url": "http://www.hcuz.es",
	"titularidadPublica": true,
	"streetAddress": "Avda. San Juan Bosco ",
	"postalCode": "50009",
	"portalId": "23668",
	"geometry": {
	"type": "Point",
	"coordinates": [
	674668.4900015928,
	4612572.899997929
	]
	},
	"latitud": 41.64391186878752,
	"longitud": -0.9039343127872704,
	"distritoId": "Universidad",
	"creationDate": "2012-03-16T01:00:00",
	"lastUpdated": "2021-03-23T08:36:49"
	},
	{
	"id": "9047",
	"title": "Clínica Nuestra Señora del Pilar",
	"tipoEquipamiento": [
	"hospitales"
	],
	"telephone": "976 275 700 ",
	"url": "http://www.clinicansdelpilar.com",
	"titularidadPublica": false,
	"streetAddress": "Pº de Ruiseñores , 20",
	"postalCode": "50006",
	"portalId": "14306",
	"geometry": {
	"type": "Point",
	"coordinates": [
	675943.810001655,
	4611851.0899978345
	]
	},
	"latitud": 41.637134425977145,
	"longitud": -0.8888429055170977,
	"creationDate": "2012-03-16T01:00:00",
	"lastUpdated": "2021-03-23T08:36:49"
	},
	{
	"id": "9043",
	"title": "Hospital Royo Villanova",
	"tipoEquipamiento": [
	"hospitales"
	],
	"telephone": "976 466 910",
	"titularidadPublica": true,
	"streetAddress": "Avda. San Gregorio, s/n",
	"postalCode": "50015",
	"portalId": "28785",
	"geometry": {
	"type": "Point",
	"coordinates": [
	678007.8400017624,
	4618078.549997662
	]
	},
	"latitud": 41.69272907861984,
	"longitud": -0.8622226909108333,
	"distritoId": "San Gregorio",
	"creationDate": "2012-03-16T01:00:00",
	"lastUpdated": "2021-11-29T14:48:04"
	},
	{
	"id": "9040",
	"title": "Hospital Universitario Miguel Servet",
	"tipoEquipamiento": [
	"hospitales"
	],
	"telephone": "976 765 500",
	"url": "https://sectorzaragozados.salud.aragon.es/",
	"titularidadPublica": true,
	"streetAddress": "Avda. Isabel La Católica, 3",
	"postalCode": "50009",
	"portalId": "2625",
	"geometry": {
	"type": "Point",
	"coordinates": [
	674985.6000016077,
	4611480.519997906
	]
	},
	"latitud": 41.63400967643476,
	"longitud": -0.9004484753330275,
	"creationDate": "2012-03-16T01:00:00",
	"lastUpdated": "2021-03-23T08:36:49"
	},
	{
	"id": "9045",
	"title": "Hospital Provincial Nuestra Sra de Gracia",
	"tipoEquipamiento": [
	"hospitales"
	],
	"telephone": "976 440 022",
	"titularidadPublica": true,
	"streetAddress": "Ramón y Cajal , 68",
	"postalCode": "50004",
	"portalId": "24497",
	"geometry": {
	"type": "Point",
	"coordinates": [
	676101.0000016633,
	4613413.229997819
	]
	},
	"latitud": 41.65116064040364,
	"longitud": -0.8864969820808878,
	"distritoId": "Centro",
	"creationDate": "2012-03-16T01:00:00",
	"lastUpdated": "2021-03-23T08:36:49"
	},
	{
	"id": "9127",
	"title": "Pabellones V y VI Nuestra Señora del Pilar",
	"tipoEquipamiento": [
	"hospitales"
	],
	"telephone": "902 555 321",
	"titularidadPublica": true,
	"streetAddress": "C/ Monasterio Nuestra Señora de los Angeles, 20",
	"postalCode": "50012",
	"portalId": "14445",
	"geometry": {
	"type": "Point",
	"coordinates": [
	673370.5000015311,
	4612467.679998019
	]
	},
	"latitud": 41.64324800665182,
	"longitud": -0.9195407360841673,
	"creationDate": "2012-03-20T01:00:00",
	"lastUpdated": "2021-03-23T08:36:49"
	},
	{
	"id": "9046",
	"title": "Hospital San Juan de Dios",
	"tipoEquipamiento": [
	"hospitales"
	],
	"telephone": "976 271 660",
	"titularidadPublica": true,
	"streetAddress": "Pº de Colón , 14",
	"postalCode": "50006",
	"portalId": "10779",
	"geometry": {
	"type": "Point",
	"coordinates": [
	676017.6000016584,
	4611481.21999783
	]
	},
	"latitud": 41.63378891710813,
	"longitud": -0.8880663155061993,
	"creationDate": "2012-03-16T01:00:00",
	"lastUpdated": "2021-03-23T08:36:49"
	},
	{
	"id": "11451",
	"title": "Clínica Quirón (La Floresta)",
	"tipoEquipamiento": [
	"hospitales"
	],
	"telephone": "976 57 90 00 ",
	"url": "http://www.quiron.es",
	"titularidadPublica": false,
	"streetAddress": "Avda. Alcalde Gómez Laguna,",
	"postalCode": "50012",
	"portalId": "33150",
	"geometry": {
	"type": "Point",
	"coordinates": [
	673470.3400015355,
	4612077.0499980105
	]
	},
	"latitud": 41.639710140358716,
	"longitud": -0.9184559251110878,
	"creationDate": "2012-12-07T01:00:00",
	"lastUpdated": "2021-03-23T08:36:49"
	},
	{
	"id": "9094",
	"title": "Hospital Viamed Montecanal en Zaragoza",
	"tipoEquipamiento": [
	"hospitales"
	],
	"email": "info@viamedmontecanal.com",
	"telephone": "876 241 818 ",
	"url": "http://www.viamedmontecanal.com",
	"titularidadPublica": false,
	"streetAddress": "C/ Franz Shubert, 2",
	"postalCode": "50012",
	"portalId": "38164",
	"geometry": {
	"type": "Point",
	"coordinates": [
	670840.4500014163,
	4611734.729998189
	]
	},
	"latitud": 41.63719643171516,
	"longitud": -0.9501109140811399,
	"creationDate": "2012-03-19T01:00:00",
	"lastUpdated": "2021-03-23T08:36:49"
	},
	{
	"id": "9093",
	"title": "MAZ - Mutua de Accidentes de Zaragoza",
	"tipoEquipamiento": [
	"hospitales"
	],
	"telephone": "976 748 000",
	"url": "http://www.maz.es",
	"titularidadPublica": false,
	"streetAddress": "Avda. de la Academia General Militar, 74",
	"postalCode": "50015",
	"portalId": "39711",
	"geometry": {
	"type": "Point",
	"coordinates": [
	677290.660001725,
	4617427.759997719
	]
	},
	"latitud": 41.687031442224985,
	"longitud": -0.8710284546370991,
	"creationDate": "2012-03-19T01:00:00",
	"lastUpdated": "2021-03-23T08:36:49"
	}
	]
	}